[
  {
    "name": "Għar Lapsi",
    "description": "Small bay near Siġġiewi. Lies about 1 km south-west of the Blue Grotto.",
    "lat": 35.82753951910442,
    "lng": 14.42339950444649,
    "maps_link": "https://maps.app.goo.gl/nPVyMm1wQ7gMQLx66",
    "hidden": false
  },
  {
    "name": "Ġnejna Bay Unnamed Secret Spot",
    "description": "TBA",
    "lat": 35.92227757063516,
    "lng": 14.3361398486033,
    "maps_link": "https://maps.app.goo.gl/DCXGJyurY7xsSghk9",
    "hidden": true
  },
  {
    "name": "Il-Kalanka",
    "description": "Very stunning beach. Hidden gem with barely anyone. Clean water. Long walk.",
    "lat": 35.82396314721218,
    "lng": 14.560216738005595,
    "maps_link": "https://maps.app.goo.gl/fQYubvDWbfJkqkyc7",
    "hidden": false
  },
  {
    "name": "St. Thomas Bay",
    "description": "Small sandy area plus flat limestone areas. Easy access to water. Lifeguards and roped swimming area.",
    "lat": 35.8562345828019,
    "lng": 14.57032941924378,
    "maps_link": "https://maps.app.goo.gl/25ecHwTR4ASzwGwq8",
    "hidden": false
  },
  {
    "name": "Top of the World",
    "description": "Scenic spot in Għargħur. Stunning. Theres benches and those exercise things in parks. Good for trekking.",
    "lat": 35.92913597237693,
    "lng": 14.448732607844605,
    "maps_link": "https://maps.app.goo.gl/F4Q5v6sx32ygk4eAA",
    "hidden": false
  },
  {
    "name": "Top of the World",
    "description": "Scenic spot in Għargħur. Stunning. Theres benches and those exercise things in parks. Good for trekking.",
    "lat": 35.92913597237693,
    "lng": 14.448732607844605,
    "maps_link": "https://maps.app.goo.gl/F4Q5v6sx32ygk4eAA",
    "hidden": false
  },
  {
    "name": "Żonqor",
    "description": "Niche rocky beach. Beautfiul place to swmin and hang out. Wonderful.",
    "lat": 35.86711606410678,
    "lng": 14.573264736087191,
    "maps_link": "https://maps.app.goo.gl/LGe8oFffD68M8nbD9",
    "hidden": true
  }
]
