[
  {
    "name": "Għar Lapsi",
    "description": "Small bay near Siġġiewi. Lies about 1 km south-west of the Blue Grotto.",
    "lat": 35.82753951910442,
    "lng": 14.42339950444649,
    "maps_link": "https://maps.app.goo.gl/nPVyMm1wQ7gMQLx66",
    "hidden": false
  },
  {
    "name": "Ġnejna Bay Unnamed Secret Spot",
    "description": "TBA",
    "lat": 35.92227757063516,
    "lng": 14.3361398486033,
    "maps_link": "https://maps.app.goo.gl/DCXGJyurY7xsSghk9",
    "hidden": true
  },
  {
    "name": "Il-Kalanka",
    "description": "Very stunning beach. Hidden gem with barely anyone. Clean water. Long walk.",
    "lat": 35.82396314721218,
    "lng": 14.560216738005595,
    "maps_link": "https://maps.app.goo.gl/fQYubvDWbfJkqkyc7",
    "hidden": false
  },
  {
    "name": "St. Thomas Bay",
    "description": "Small sandy area plus flat limestone areas. Easy access to water. Lifeguards and roped swimming area.",
    "lat": 35.8562345828019,
    "lng": 14.57032941924378,
    "maps_link": "https://maps.app.goo.gl/25ecHwTR4ASzwGwq8",
    "hidden": false
  },
  {
    "name": "Top of the World",
    "description": "Scenic spot in Għargħur. Stunning. Theres benches and those exercise things in parks. Good for trekking.",
    "lat": 35.92913597237693,
    "lng": 14.448732607844605,
    "maps_link": "https://maps.app.goo.gl/F4Q5v6sx32ygk4eAA",
    "hidden": false
  },
  {
    "name": "Żonqor",
    "description": "Niche rocky beach. Beautfiul place to swmin and hang out. Wonderful.",
    "lat": 35.86711606410678,
    "lng": 14.573264736087191,
    "maps_link": "https://maps.app.goo.gl/LGe8oFffD68M8nbD9",
    "hidden": true
  },
  {
    "name": "Chinese Garden",
    "description": "Very nice garden/park to relax in. Good for killing time and taking a break.",
    "lat": 35.86382358763556,
    "lng": 14.502952082115536,
    "maps_link": "https://maps.app.goo.gl/RENRryRDNShTrS5n8",
    "hidden": false
  },
  {
    "name": "Airport",
    "description": "The Airport has many shops/restaurants. Good alternative for baystreet/shoreline",
    "lat": 35.84934015502985,
    "lng": 14.495432365442868,
    "maps_link": "https://maps.app.goo.gl/N5hLhn5yVjdz5wsS9",
    "hidden": false
  },
  {
    "name": "Jerma Palace Hotel",
    "description": "Most popular Urbex location in Malta. Huge abandoned hotel. Graffiti everywhere. Do not go alone or at night.",
    "lat": 35.86127027221746,
    "lng": 14.57369910956422,
    "maps_link": "https://maps.app.goo.gl/vXD1tQzYTvhkqnQD8",
    "hidden": false
  },
  {
    "name": "Għajn Tuffieħa",
    "description": "Beach with dark sand. Popular for surfing. Set in a bay backed by hills.",
    "lat": 35.92871908248434,
    "lng": 14.3444862334765,
    "maps_link": "https://maps.app.goo.gl/FCcV2VJnVGGyRLgy9",
    "hidden": false
  },
  {
    "name": "Blata tal-Melħ",
    "description": "Hidden gem. Atmospheric and dramatic cliffs. Cannot swim. Long hike. Amazing sunset.",
    "lat": 35.89558684614556,
    "lng": 14.330051178308532,
    "maps_link": "https://maps.app.goo.gl/W5LHjpwAn4aCHCRC8",
    "hidden": true
  },
  {
    "name": "Għar Ħanżir",
    "description": "Small niche empty cave in the heart of wied. Might actually find a pig nearby.",
    "lat": 35.86258164350911,
    "lng": 14.469089783144854,
    "maps_link": "https://maps.app.goo.gl/RxbVmb1dL9EqLq8k7",
    "hidden": true
  },
  {
    "name": "Golden Bay",
    "description": "Scenic beach cove with fine sand. Rocky cliffs and shallow water. Resort hotels & restaurants.",
    "lat": 35.93389613062322,
    "lng": 14.344372340514266,
    "maps_link": "https://maps.app.goo.gl/M5ttawAmbHaa7mvJA",
    "hidden": false
  },
  {
    "name": "Sant'Antnin Family Park",
    "description": "Big park with animals, playground and more. For everyone. Nice place to walk.",
    "lat": 35.86179123594235,
    "lng": 14.553517054768593,
    "maps_link": "https://maps.app.goo.gl/U7f8fM3DpDyhgaaj8",
    "hidden": false
  },
  {
    "name": "Għar Ħanek",
    "description": "Very blue water. Amazing plcae to swim. Stunning.",
    "lat": 35.82336945063925,
    "lng": 14.43821399686969,
    "maps_link": "https://maps.app.goo.gl/BzasFHNXa7zC33rk6",
    "hidden": true
  },
  {
    "name": "Miżieb Woodland",
    "description": "Best alternative to Buskett. Very natural. Peace and tranquility.",
    "lat": 35.94685069769874,
    "lng": 14.374939832380571,
    "maps_link": "https://maps.app.goo.gl/WesMhmzrHXafLwd36",
    "hidden": false
  },
  {
    "name": "Verdala Palace",
    "description": "Very amazing outside and in. Aesthetically delightful in furnishing and decor. Torture dungeon below.",
    "lat": 35.861627510142974,
    "lng": 14.400656801538057,
    "maps_link": "https://maps.app.goo.gl/5zLUG2n5XjnxxJkZ6",
    "hidden": false
  },
  {
    "name": "Verdala Palace",
    "description": "Very amazing outside and in. Aesthetically delightful in furnishing and decor. Torture dungeon below.",
    "lat": 35.861627510142974,
    "lng": 14.400656801538057,
    "maps_link": "https://maps.app.goo.gl/5zLUG2n5XjnxxJkZ6",
    "hidden": false
  },
  {
    "name": "L-Aħrax + L-Armier",
    "description": "(to be expanded upon later)",
    "lat": 35.98387707055028,
    "lng": 14.35695770785714,
    "maps_link": "https://maps.app.goo.gl/JdGnEoaXwLQVit3HA",
    "hidden": false
  },
  {
    "name": "Chadwick Lakes",
    "description": "Only natural stream of water. Good for hiking, picnics and relaxing.",
    "lat": 35.89789454274835,
    "lng": 14.396098904694703,
    "maps_link": "https://maps.app.goo.gl/Hw23rKc7T182NWvv5",
    "hidden": false
  },
  {
    "name": "Floriana Garden",
    "description": "Beautiful place for killing time. Forest-Like. Recomennded to go in the morning. Photoshoots",
    "lat": 35.89067450672746,
    "lng": 14.499715918189006,
    "maps_link": "https://maps.app.goo.gl/3cPxmGaykQKQfqrQ6",
    "hidden": true
  },
  {
    "name": "The Red Tower",
    "description": "Beautiful place for killing time. Forest-Like. Recomennded to go in the morning. Photoshoots",
    "lat": 35.97472465250079,
    "lng": 14.343029325976195,
    "maps_link": "https://maps.app.goo.gl/wqn6qiBq1eCkbVSB7",
    "hidden": false
  },
  {
    "name": "Wied Ta' (Baqqiegha)",
    "description": "One of the most unknown wied. Not alot of info about it",
    "lat": 35.86798715747757,
    "lng": 14.444653532786452,
    "maps_link": "https://maps.app.goo.gl/6akXva5p2GG8RN4R9",
    "hidden": true
  },
  {
    "name": "Wied Tal-Isperanza",
    "description": "Quiet and peaceful walk. Watery.",
    "lat": 35.907331462189624,
    "lng": 14.415634532329204,
    "maps_link": "https://maps.app.goo.gl/VBb4xvgxhQ9Nh8tQ9",
    "hidden": false
  },
  {
    "name": "Congreve Memorial",
    "description": "Cool monument on the path from one temple to the other. Gaze over the spectacular landscape. 1h hike.",
    "lat": 35.82579442232466,
    "lng": 14.43786139715022,
    "maps_link": "https://maps.app.goo.gl/w34ZgCzvp74y46gq5",
    "hidden": false
  },
  {
    "name": "Ħal-Farrug Family Park",
    "description": "Nice post hangout resting spot. I would go here in the evening to fuck around idk..",
    "lat": 35.86499417989242,
    "lng": 14.477154983252653,
    "maps_link": "https://maps.app.goo.gl/xjreCVtspruppweLA",
    "hidden": false
  }
]
